[
  {
    "id": "place_001",
    "name": "北京首都国际机场",
    "address": "北京市朝阳区首都机场路",
    "latitude": 40.0799,
    "longitude": 116.6031,
    "category": "机场",
    "phone": "010-96158",
    "rating": 4.2,
    "description": "中国首都的主要国际机场",
    "imageUrl": "https://example.com/airport.jpg"
  },
  {
    "id": "place_002", 
    "name": "天安门广场",
    "address": "北京市东城区东长安街",
    "latitude": 39.9042,
    "longitude": 116.3974,
    "category": "景点",
    "rating": 4.8,
    "description": "中华人民共和国的象征性广场",
    "imageUrl": "https://example.com/tiananmen.jpg"
  },
  {
    "id": "place_003",
    "name": "上海外滩",
    "address": "上海市黄浦区中山东一路",
    "latitude": 31.2397,
    "longitude": 121.4900,
    "category": "景点",
    "rating": 4.6,
    "description": "上海著名的观光景点和历史文化街区",
    "imageUrl": "https://example.com/bund.jpg"
  },
  {
    "id": "place_004",
    "name": "星巴克咖啡",
    "address": "北京市朝阳区建国门外大街1号",
    "latitude": 39.9060,
    "longitude": 116.4170,
    "category": "餐饮",
    "phone": "400-820-5678",
    "rating": 4.3,
    "description": "全球知名咖啡连锁店",
    "imageUrl": "https://example.com/starbucks.jpg"
  },
  {
    "id": "place_005",
    "name": "万达广场",
    "address": "北京市丰台区丰科路6号",
    "latitude": 39.8584,
    "longitude": 116.3074,
    "category": "购物中心",
    "phone": "010-83607777",
    "rating": 4.1,
    "description": "大型综合性购物娱乐中心",
    "imageUrl": "https://example.com/wanda.jpg"
  }
]