[
  {
    "id": "place_001",
    "name": "北京首都国际机场",
    "address": "北京市朝阳区首都机场路",
    "latitude": 40.0799,
    "longitude": 116.6031,
    "category": "机场",
    "phone": "010-96158",
    "rating": 4.2,
    "description": "中国首都的主要国际机场",
    "imageUrl": "https://example.com/airport.jpg"
  },
  {
    "id": "place_002", 
    "name": "天安门广场",
    "address": "北京市东城区东长安街",
    "latitude": 39.9042,
    "longitude": 116.3974,
    "category": "景点",
    "rating": 4.8,
    "description": "中华人民共和国的象征性广场",
    "imageUrl": "https://example.com/tiananmen.jpg"
  },
  {
    "id": "place_003",
    "name": "上海外滩",
    "address": "上海市黄浦区中山东一路",
    "latitude": 31.2397,
    "longitude": 121.4900,
    "category": "景点",
    "rating": 4.6,
    "description": "上海著名的观光景点和历史文化街区",
    "imageUrl": "https://example.com/bund.jpg"
  },
  {
    "id": "place_004",
    "name": "星巴克咖啡",
    "address": "北京市朝阳区建国门外大街1号",
    "latitude": 39.9060,
    "longitude": 116.4170,
    "category": "餐饮",
    "phone": "400-820-5678",
    "rating": 4.3,
    "description": "全球知名咖啡连锁店",
    "imageUrl": "https://example.com/starbucks.jpg"
  },
  {
    "id": "place_005",
    "name": "万达广场",
    "address": "北京市丰台区丰科路6号",
    "latitude": 39.8584,
    "longitude": 116.3074,
    "category": "购物中心",
    "phone": "010-83607777",
    "rating": 4.1,
    "description": "大型综合性购物娱乐中心",
    "imageUrl": "https://example.com/wanda.jpg"
  },
  {
    "id": "place_006",
    "name": "巴奴毛肚火锅(群光广场店)",
    "address": "洪山区珞喻路169号群光广场 8楼 8011号铺位",
    "latitude": 30.5236,
    "longitude": 114.3668,
    "category": "餐饮",
    "phone": "027-87654321",
    "rating": 4.5,
    "description": "连续2年四川火锅榜首，食材新鲜，汤味道浓郁",
    "imageUrl": "https://example.com/banu.jpg"
  },
  {
    "id": "place_007",
    "name": "木屋烧烤(光谷世界城店)",
    "address": "洪山区珞喻路527号光谷世界城1楼",
    "latitude": 30.5189,
    "longitude": 114.3742,
    "category": "餐饮",
    "phone": "027-87123456",
    "rating": 4.7,
    "description": "正宗烧烤，夜宵必备",
    "imageUrl": "https://example.com/muwo.jpg"
  },
  {
    "id": "place_008",
    "name": "麦当劳(武汉广场店)",
    "address": "江汉区解放大道688号武汉广场1楼",
    "latitude": 30.5881,
    "longitude": 114.2652,
    "category": "餐饮",
    "phone": "027-85432100",
    "rating": 4.3,
    "description": "全球知名快餐连锁",
    "imageUrl": "https://example.com/mcdonalds.jpg"
  },
  {
    "id": "place_009",
    "name": "老乡鸡(珞喻路店)",
    "address": "洪山区珞喻路78号华中科技大学对面",
    "latitude": 30.5134,
    "longitude": 114.4190,
    "category": "餐饮",
    "phone": "027-87765432",
    "rating": 4.6,
    "description": "中式快餐，招牌鸡汤",
    "imageUrl": "https://example.com/laoxiangji.jpg"
  },
  {
    "id": "place_010",
    "name": "武汉光谷金雁酒店",
    "address": "洪山区关山大道332号",
    "latitude": 30.5184,
    "longitude": 114.4190,
    "category": "酒店",
    "phone": "027-87654321",
    "rating": 4.8,
    "description": "高档型商务酒店，地理位置优越",
    "imageUrl": "https://example.com/jinyan.jpg"
  },
  {
    "id": "place_011",
    "name": "汉庭酒店(武汉光谷店)",
    "address": "洪山区珞喻路华中科技大学对面",
    "latitude": 30.5134,
    "longitude": 114.4156,
    "category": "酒店",
    "phone": "027-87234567",
    "rating": 4.5,
    "description": "经济型连锁酒店，性价比高",
    "imageUrl": "https://example.com/hanting.jpg"
  },
  {
    "id": "place_012",
    "name": "君澜度假酒店(武汉东湖)",
    "address": "武昌区东湖路特1号",
    "latitude": 30.5525,
    "longitude": 114.3715,
    "category": "酒店",
    "phone": "027-86789012",
    "rating": 4.9,
    "description": "豪华型度假酒店，东湖风景区内",
    "imageUrl": "https://example.com/junlan.jpg"
  },
  {
    "id": "place_013",
    "name": "如家酒店(武汉火车站店)",
    "address": "洪山区杨春湖路2号",
    "latitude": 30.5089,
    "longitude": 114.4267,
    "category": "酒店",
    "phone": "027-83456789",
    "rating": 4.3,
    "description": "经济型酒店，交通便利",
    "imageUrl": "https://example.com/rujia.jpg"
  },
  {
    "id": "place_014",
    "name": "凯悦酒店(武汉光谷)",
    "address": "洪山区光谷大道58号",
    "latitude": 30.5298,
    "longitude": 114.4088,
    "category": "酒店",
    "phone": "027-59876543",
    "rating": 4.9,
    "description": "奢华型商务酒店，设施一流",
    "imageUrl": "https://example.com/hyatt.jpg"
  },
  {
    "id": "place_015",
    "name": "武汉欢乐谷",
    "address": "洪山区欢乐大道196号",
    "latitude": 30.5019,
    "longitude": 114.4267,
    "category": "景点",
    "phone": "027-81730666",
    "rating": 4.8,
    "description": "大型主题游乐园，4A级景区",
    "imageUrl": "https://example.com/happyvalley.jpg"
  },
  {
    "id": "place_016",
    "name": "东湖风景区",
    "address": "武昌区东湖路特1号",
    "latitude": 30.5525,
    "longitude": 114.3715,
    "category": "景点",
    "phone": "027-86791413",
    "rating": 4.6,
    "description": "红色景点，自然风光优美",
    "imageUrl": "https://example.com/donghu.jpg"
  },
  {
    "id": "place_017",
    "name": "黄鹤楼",
    "address": "武昌区蛇山西山坡特1号",
    "latitude": 30.5442,
    "longitude": 114.2950,
    "category": "景点",
    "phone": "027-88875096",
    "rating": 4.7,
    "description": "江南三大名楼之一，3A级景区",
    "imageUrl": "https://example.com/huanghelou.jpg"
  },
  {
    "id": "place_018",
    "name": "南湖花溪公园",
    "address": "洪山区南湖大道178号",
    "latitude": 30.5089,
    "longitude": 114.3842,
    "category": "景点",
    "phone": "027-87654321",
    "rating": 4.4,
    "description": "生态公园，免费开放",
    "imageUrl": "https://example.com/nanhu.jpg"
  },
  {
    "id": "place_019",
    "name": "武汉海昌极地海洋公园",
    "address": "东西湖区金银潭大道96号",
    "latitude": 30.6089,
    "longitude": 114.1842,
    "category": "景点",
    "phone": "027-83234567",
    "rating": 4.9,
    "description": "大型海洋公园，4A级景区",
    "imageUrl": "https://example.com/haichang.jpg"
  }
]